2025-10-01 12:15:00,230 - LOONARR-1 - INFO - [AUTOPILOT STARTED]
2025-10-01 12:15:02,306 - LOONARR-1 - INFO - MAVLink connection is established: '/dev/ttyACM0'
2025-10-01 12:15:02,510 - LOONARR-1 - DEBUG - Executing command: INIT, Priority: 0, Body: {}
2025-10-01 12:15:02,510 - LOONARR-1 - INFO - Initializing autopilot
2025-10-01 12:15:05,230 - LOONARR-1 - INFO - Telemetry: attempting to connect with '/dev/ttyACM0'
2025-10-01 12:15:05,231 - LOONARR-1 - INFO - Telemetry: connected with '/dev/ttyACM0'
2025-10-01 12:15:05,231 - LOONARR-1 - DEBUG - Executing command: TELEMETRY, Priority: 2, Body: {'target': 'RC_CHANNELS'}
2025-10-01 12:15:05,465 - LOONARR-1 - DEBUG - Telemetry: {'mavpackettype': 'RC_CHANNELS', 'time_boot_ms': 25700, 'chancount': 16, 'chan1_raw': 1500, 'chan2_raw': 1500, 'chan3_raw': 1658, 'chan4_raw': 1499, 'chan5_raw': 2000, 'chan6_raw': 999, 'chan7_raw': 999, 'chan8_raw': 999, 'chan9_raw': 999, 'chan10_raw': 999, 'chan11_raw': 1503, 'chan12_raw': 1503, 'chan13_raw': 880, 'chan14_raw': 880, 'chan15_raw': 2011, 'chan16_raw': 2011, 'chan17_raw': 0, 'chan18_raw': 0, 'rssi': 255}
2025-10-01 12:15:05,465 - LOONARR-1 - INFO - Autopilot state: {'connection': True, 'odometry_connection': False, 'bee_state': 'OFF', 'battery': 0, 'speed': 0, 'completed': False, 'frame': {}, 'target_lost': 0}
2025-10-01 12:15:06,465 - LOONARR-1 - DEBUG - Executing command: MONITOR, Priority: 3, Body: {'target': 'SYS_STATUS'}
2025-10-01 12:15:07,231 - LOONARR-1 - INFO - Follower: attempting to connect with '/dev/ttyACM0'
2025-10-01 12:15:07,231 - LOONARR-1 - INFO - Follower: connected with '/dev/ttyACM0'
2025-10-01 12:15:07,462 - LOONARR-1 - DEBUG - Monitoring: {'mavpackettype': 'SYS_STATUS', 'onboard_control_sensors_present': 322034735, 'onboard_control_sensors_enabled': 52527151, 'onboard_control_sensors_health': 51478575, 'load': 83, 'voltage_battery': 23502, 'current_battery': 12987, 'battery_remaining': 73, 'drop_rate_comm': 0, 'errors_comm': 0, 'errors_count1': 0, 'errors_count2': 0, 'errors_count3': 0, 'errors_count4': 0}
2025-10-01 12:15:09,231 - LOONARR-1 - DEBUG - Executing command: TELEMETRY, Priority: 2, Body: {'target': 'RC_CHANNELS'}
2025-10-01 12:15:09,462 - LOONARR-1 - DEBUG - Telemetry: {'mavpackettype': 'RC_CHANNELS', 'time_boot_ms': 29700, 'chancount': 16, 'chan1_raw': 1500, 'chan2_raw': 1500, 'chan3_raw': 1525, 'chan4_raw': 1500, 'chan5_raw': 999, 'chan6_raw': 999, 'chan7_raw': 999, 'chan8_raw': 999, 'chan9_raw': 999, 'chan10_raw': 999, 'chan11_raw': 1503, 'chan12_raw': 1503, 'chan13_raw': 880, 'chan14_raw': 880, 'chan15_raw': 2011, 'chan16_raw': 2011, 'chan17_raw': 0, 'chan18_raw': 0, 'rssi': 255}
2025-10-01 12:15:09,462 - LOONARR-1 - INFO - Autopilot state: {'connection': True, 'odometry_connection': False, 'bee_state': 'OFF', 'battery': 73, 'speed': 0, 'completed': False, 'frame': {}, 'target_lost': 0}
2025-10-01 12:15:10,462 - LOONARR-1 - DEBUG - Executing command: MONITOR, Priority: 3, Body: {'target': 'SYS_STATUS'}
2025-10-01 12:15:11,461 - LOONARR-1 - DEBUG - Monitoring: {'mavpackettype': 'SYS_STATUS', 'onboard_control_sensors_present': 322034735, 'onboard_control_sensors_enabled': 52527151, 'onboard_control_sensors_health': 51478575, 'load': 76, 'voltage_battery': 23507, 'current_battery': 13002, 'battery_remaining': 69, 'drop_rate_comm': 0, 'errors_comm': 0, 'errors_count1': 0, 'errors_count2': 0, 'errors_count3': 0, 'errors_count4': 0}
2025-10-01 12:15:13,231 - LOONARR-1 - DEBUG - Executing command: TELEMETRY, Priority: 2, Body: {'target': 'RC_CHANNELS'}
2025-10-01 12:15:13,462 - LOONARR-1 - DEBUG - Telemetry: {'mavpackettype': 'RC_CHANNELS', 'time_boot_ms': 33700, 'chancount': 16, 'chan1_raw': 1500, 'chan2_raw': 1500, 'chan3_raw': 1525, 'chan4_raw': 1500, 'chan5_raw': 999, 'chan6_raw': 999, 'chan7_raw': 999, 'chan8_raw': 999, 'chan9_raw': 999, 'chan10_raw': 999, 'chan11_raw': 1503, 'chan12_raw': 1503, 'chan13_raw': 880, 'chan14_raw': 880, 'chan15_raw': 2011, 'chan16_raw': 2011, 'chan17_raw': 0, 'chan18_raw': 0, 'rssi': 255}
2025-10-01 12:15:13,462 - LOONARR-1 - INFO - Autopilot state: {'connection': True, 'odometry_connection': False, 'bee_state': 'OFF', 'battery': 69, 'speed': 0, 'completed': False, 'frame': {}, 'target_lost': 0}
2025-10-01 12:15:14,462 - LOONARR-1 - DEBUG - Executing command: MONITOR, Priority: 3, Body: {'target': 'SYS_STATUS'}
2025-10-01 12:15:15,461 - LOONARR-1 - DEBUG - Monitoring: {'mavpackettype': 'SYS_STATUS', 'onboard_control_sensors_present': 322034735, 'onboard_control_sensors_enabled': 52527151, 'onboard_control_sensors_health': 51478575, 'load': 76, 'voltage_battery': 23502, 'current_battery': 12990, 'battery_remaining': 64, 'drop_rate_comm': 0, 'errors_comm': 0, 'errors_count1': 0, 'errors_count2': 0, 'errors_count3': 0, 'errors_count4': 0}
2025-10-01 12:15:17,231 - LOONARR-1 - DEBUG - Executing command: TELEMETRY, Priority: 2, Body: {'target': 'RC_CHANNELS'}
2025-10-01 12:15:17,461 - LOONARR-1 - DEBUG - Telemetry: {'mavpackettype': 'RC_CHANNELS', 'time_boot_ms': 37700, 'chancount': 16, 'chan1_raw': 1500, 'chan2_raw': 1500, 'chan3_raw': 1525, 'chan4_raw': 1500, 'chan5_raw': 999, 'chan6_raw': 999, 'chan7_raw': 999, 'chan8_raw': 999, 'chan9_raw': 999, 'chan10_raw': 999, 'chan11_raw': 1503, 'chan12_raw': 1503, 'chan13_raw': 880, 'chan14_raw': 880, 'chan15_raw': 2011, 'chan16_raw': 2011, 'chan17_raw': 0, 'chan18_raw': 0, 'rssi': 255}
2025-10-01 12:15:17,461 - LOONARR-1 - INFO - Autopilot state: {'connection': True, 'odometry_connection': False, 'bee_state': 'OFF', 'battery': 64, 'speed': 0, 'completed': False, 'frame': {}, 'target_lost': 0}
2025-10-01 12:15:18,461 - LOONARR-1 - DEBUG - Executing command: MONITOR, Priority: 3, Body: {'target': 'SYS_STATUS'}
2025-10-01 12:15:19,461 - LOONARR-1 - DEBUG - Monitoring: {'mavpackettype': 'SYS_STATUS', 'onboard_control_sensors_present': 322034735, 'onboard_control_sensors_enabled': 52527151, 'onboard_control_sensors_health': 51478575, 'load': 77, 'voltage_battery': 23505, 'current_battery': 12998, 'battery_remaining': 60, 'drop_rate_comm': 0, 'errors_comm': 0, 'errors_count1': 0, 'errors_count2': 0, 'errors_count3': 0, 'errors_count4': 0}
2025-10-01 12:15:21,231 - LOONARR-1 - DEBUG - Executing command: TELEMETRY, Priority: 2, Body: {'target': 'RC_CHANNELS'}
2025-10-01 12:15:21,461 - LOONARR-1 - DEBUG - Telemetry: {'mavpackettype': 'RC_CHANNELS', 'time_boot_ms': 41700, 'chancount': 16, 'chan1_raw': 1500, 'chan2_raw': 1500, 'chan3_raw': 1525, 'chan4_raw': 1500, 'chan5_raw': 999, 'chan6_raw': 999, 'chan7_raw': 1503, 'chan8_raw': 999, 'chan9_raw': 999, 'chan10_raw': 999, 'chan11_raw': 1503, 'chan12_raw': 1503, 'chan13_raw': 880, 'chan14_raw': 880, 'chan15_raw': 2011, 'chan16_raw': 2011, 'chan17_raw': 0, 'chan18_raw': 0, 'rssi': 255}
2025-10-01 12:15:21,461 - LOONARR-1 - INFO - Bee state changed to [READY]
2025-10-01 12:15:22,460 - LOONARR-1 - INFO - Autopilot state: {'connection': True, 'odometry_connection': False, 'bee_state': 'READY', 'battery': 60, 'speed': 0, 'completed': False, 'frame': {}, 'target_lost': 0}
2025-10-01 12:15:25,231 - LOONARR-1 - DEBUG - Executing command: TELEMETRY, Priority: 2, Body: {'target': 'RC_CHANNELS'}
2025-10-01 12:15:25,460 - LOONARR-1 - DEBUG - Telemetry: {'mavpackettype': 'RC_CHANNELS', 'time_boot_ms': 45700, 'chancount': 16, 'chan1_raw': 1500, 'chan2_raw': 1500, 'chan3_raw': 1525, 'chan4_raw': 1500, 'chan5_raw': 999, 'chan6_raw': 999, 'chan7_raw': 1503, 'chan8_raw': 999, 'chan9_raw': 999, 'chan10_raw': 999, 'chan11_raw': 1503, 'chan12_raw': 1503, 'chan13_raw': 880, 'chan14_raw': 880, 'chan15_raw': 2011, 'chan16_raw': 2011, 'chan17_raw': 0, 'chan18_raw': 0, 'rssi': 255}
2025-10-01 12:15:25,460 - LOONARR-1 - INFO - Autopilot state: {'connection': True, 'odometry_connection': False, 'bee_state': 'READY', 'battery': 60, 'speed': 0, 'completed': False, 'frame': {}, 'target_lost': 0}
2025-10-01 12:15:26,460 - LOONARR-1 - DEBUG - Executing command: MONITOR, Priority: 3, Body: {'target': 'SYS_STATUS'}
2025-10-01 12:15:27,458 - LOONARR-1 - DEBUG - Monitoring: {'mavpackettype': 'SYS_STATUS', 'onboard_control_sensors_present': 322034735, 'onboard_control_sensors_enabled': 35749935, 'onboard_control_sensors_health': 51478575, 'load': 61, 'voltage_battery': 23509, 'current_battery': 13007, 'battery_remaining': 51, 'drop_rate_comm': 0, 'errors_comm': 0, 'errors_count1': 0, 'errors_count2': 0, 'errors_count3': 0, 'errors_count4': 0}
2025-10-01 12:15:29,231 - LOONARR-1 - DEBUG - Executing command: TELEMETRY, Priority: 2, Body: {'target': 'RC_CHANNELS'}
2025-10-01 12:15:29,459 - LOONARR-1 - DEBUG - Telemetry: {'mavpackettype': 'RC_CHANNELS', 'time_boot_ms': 49700, 'chancount': 16, 'chan1_raw': 1500, 'chan2_raw': 1500, 'chan3_raw': 1525, 'chan4_raw': 1500, 'chan5_raw': 999, 'chan6_raw': 999, 'chan7_raw': 1503, 'chan8_raw': 999, 'chan9_raw': 999, 'chan10_raw': 999, 'chan11_raw': 1503, 'chan12_raw': 1503, 'chan13_raw': 880, 'chan14_raw': 880, 'chan15_raw': 2011, 'chan16_raw': 2011, 'chan17_raw': 0, 'chan18_raw': 0, 'rssi': 255}
2025-10-01 12:15:29,459 - LOONARR-1 - INFO - Autopilot state: {'connection': True, 'odometry_connection': False, 'bee_state': 'READY', 'battery': 51, 'speed': 0, 'completed': False, 'frame': {}, 'target_lost': 0}
2025-10-01 12:15:30,460 - LOONARR-1 - DEBUG - Executing command: MONITOR, Priority: 3, Body: {'target': 'SYS_STATUS'}
2025-10-01 12:15:31,458 - LOONARR-1 - DEBUG - Monitoring: {'mavpackettype': 'SYS_STATUS', 'onboard_control_sensors_present': 322034735, 'onboard_control_sensors_enabled': 35749935, 'onboard_control_sensors_health': 51478575, 'load': 61, 'voltage_battery': 23508, 'current_battery': 12997, 'battery_remaining': 47, 'drop_rate_comm': 0, 'errors_comm': 0, 'errors_count1': 0, 'errors_count2': 0, 'errors_count3': 0, 'errors_count4': 0}
2025-10-01 12:15:33,231 - LOONARR-1 - DEBUG - Executing command: TELEMETRY, Priority: 2, Body: {'target': 'RC_CHANNELS'}
2025-10-01 12:15:33,459 - LOONARR-1 - DEBUG - Telemetry: {'mavpackettype': 'RC_CHANNELS', 'time_boot_ms': 53700, 'chancount': 16, 'chan1_raw': 1500, 'chan2_raw': 1500, 'chan3_raw': 1525, 'chan4_raw': 1500, 'chan5_raw': 999, 'chan6_raw': 999, 'chan7_raw': 2000, 'chan8_raw': 999, 'chan9_raw': 999, 'chan10_raw': 999, 'chan11_raw': 1503, 'chan12_raw': 1503, 'chan13_raw': 880, 'chan14_raw': 880, 'chan15_raw': 2011, 'chan16_raw': 2011, 'chan17_raw': 0, 'chan18_raw': 0, 'rssi': 255}
2025-10-01 12:15:33,459 - LOONARR-1 - INFO - Bee state changed to [FOLLOW]
2025-10-01 12:15:33,717 - LOONARR-1 - INFO - Autopilot state: {'connection': True, 'odometry_connection': False, 'bee_state': 'FOLLOW', 'battery': 47, 'speed': 0, 'completed': False, 'frame': {}, 'target_lost': 0}
2025-10-01 12:15:35,232 - LOONARR-1 - DEBUG - Executing command: FOLLOW, Priority: 1, Body: {}
2025-10-01 12:15:37,615 - LOONARR-1 - INFO - [FOLLOWING TARGET N:-0.3803, E:0.2193, D:0, Y:0.0351]
2025-10-01 12:15:38,252 - LOONARR-1 - DEBUG - Executing command: FOLLOW, Priority: 1, Body: {}
2025-10-01 12:15:38,288 - LOONARR-1 - INFO - [FOLLOWING TARGET N:-0.4645, E:0.1845, D:0, Y:0.0295]
2025-10-01 12:15:39,252 - LOONARR-1 - DEBUG - Executing command: FOLLOW, Priority: 1, Body: {}
2025-10-01 12:15:39,288 - LOONARR-1 - INFO - [FOLLOWING TARGET N:-0.478, E:0.2561, D:0, Y:0.041]
2025-10-01 12:15:40,252 - LOONARR-1 - DEBUG - Executing command: TELEMETRY, Priority: 2, Body: {'target': 'RC_CHANNELS'}
2025-10-01 12:15:40,852 - LOONARR-1 - DEBUG - Telemetry: {'mavpackettype': 'RC_CHANNELS', 'time_boot_ms': 61100, 'chancount': 16, 'chan1_raw': 1500, 'chan2_raw': 1500, 'chan3_raw': 1525, 'chan4_raw': 1500, 'chan5_raw': 999, 'chan6_raw': 999, 'chan7_raw': 2000, 'chan8_raw': 999, 'chan9_raw': 999, 'chan10_raw': 999, 'chan11_raw': 1503, 'chan12_raw': 1503, 'chan13_raw': 880, 'chan14_raw': 880, 'chan15_raw': 2011, 'chan16_raw': 2011, 'chan17_raw': 0, 'chan18_raw': 0, 'rssi': 255}
2025-10-01 12:15:40,852 - LOONARR-1 - INFO - Autopilot state: {'connection': True, 'odometry_connection': False, 'bee_state': 'FOLLOW', 'battery': 47, 'speed': 0, 'completed': False, 'frame': (-0.478, 0.2561, 0, 0.041), 'target_lost': 0}
2025-10-01 12:15:41,853 - LOONARR-1 - DEBUG - Executing command: FOLLOW, Priority: 1, Body: {}
2025-10-01 12:15:41,889 - LOONARR-1 - INFO - [FOLLOWING TARGET N:-0.4962, E:0.1308, D:0, Y:0.0209]
2025-10-01 12:15:42,591 - LOONARR-1 - DEBUG - Executing command: TELEMETRY, Priority: 2, Body: {'target': 'RC_CHANNELS'}
2025-10-01 12:15:43,852 - LOONARR-1 - DEBUG - Telemetry: {'mavpackettype': 'RC_CHANNELS', 'time_boot_ms': 64100, 'chancount': 16, 'chan1_raw': 1500, 'chan2_raw': 1500, 'chan3_raw': 1525, 'chan4_raw': 1500, 'chan5_raw': 999, 'chan6_raw': 999, 'chan7_raw': 2000, 'chan8_raw': 999, 'chan9_raw': 999, 'chan10_raw': 999, 'chan11_raw': 1503, 'chan12_raw': 1503, 'chan13_raw': 880, 'chan14_raw': 880, 'chan15_raw': 2011, 'chan16_raw': 2011, 'chan17_raw': 0, 'chan18_raw': 0, 'rssi': 255}
2025-10-01 12:15:43,852 - LOONARR-1 - INFO - Autopilot state: {'connection': True, 'odometry_connection': False, 'bee_state': 'FOLLOW', 'battery': 47, 'speed': 0, 'completed': False, 'frame': (-0.4962, 0.1308, 0, 0.0209), 'target_lost': 0}
2025-10-01 12:15:44,853 - LOONARR-1 - DEBUG - Executing command: FOLLOW, Priority: 1, Body: {}
2025-10-01 12:15:44,909 - LOONARR-1 - INFO - [FOLLOWING TARGET N:-0.3906, E:0.1266, D:0, Y:0.0203]
2025-10-01 12:15:45,471 - LOONARR-1 - DEBUG - Executing command: FOLLOW, Priority: 1, Body: {}
2025-10-01 12:15:45,506 - LOONARR-1 - INFO - [FOLLOWING TARGET N:-0.3406, E:0.2311, D:0, Y:0.037]
2025-10-01 12:15:46,491 - LOONARR-1 - DEBUG - Executing command: TELEMETRY, Priority: 2, Body: {'target': 'RC_CHANNELS'}
2025-10-01 12:15:47,851 - LOONARR-1 - DEBUG - Telemetry: {'mavpackettype': 'RC_CHANNELS', 'time_boot_ms': 68100, 'chancount': 16, 'chan1_raw': 1500, 'chan2_raw': 1500, 'chan3_raw': 1525, 'chan4_raw': 1500, 'chan5_raw': 999, 'chan6_raw': 999, 'chan7_raw': 2000, 'chan8_raw': 999, 'chan9_raw': 999, 'chan10_raw': 999, 'chan11_raw': 1503, 'chan12_raw': 1503, 'chan13_raw': 880, 'chan14_raw': 880, 'chan15_raw': 2011, 'chan16_raw': 2011, 'chan17_raw': 0, 'chan18_raw': 0, 'rssi': 255}
2025-10-01 12:15:47,851 - LOONARR-1 - INFO - Autopilot state: {'connection': True, 'odometry_connection': False, 'bee_state': 'FOLLOW', 'battery': 47, 'speed': 0, 'completed': False, 'frame': (-0.3406, 0.2311, 0, 0.037), 'target_lost': 0}
2025-10-01 12:15:48,852 - LOONARR-1 - DEBUG - Executing command: FOLLOW, Priority: 1, Body: {}
2025-10-01 12:15:48,887 - LOONARR-1 - INFO - [FOLLOWING TARGET N:-0.2705, E:0.203, D:0, Y:0.0325]
2025-10-01 12:15:49,470 - LOONARR-1 - DEBUG - Executing command: FOLLOW, Priority: 1, Body: {}
2025-10-01 12:15:49,509 - LOONARR-1 - INFO - [FOLLOWING TARGET N:-0.3039, E:0.3829, D:0, Y:0.0613]
2025-10-01 12:15:50,610 - LOONARR-1 - DEBUG - Executing command: TELEMETRY, Priority: 2, Body: {'target': 'RC_CHANNELS'}
2025-10-01 12:15:51,850 - LOONARR-1 - DEBUG - Telemetry: {'mavpackettype': 'RC_CHANNELS', 'time_boot_ms': 72100, 'chancount': 16, 'chan1_raw': 1500, 'chan2_raw': 1500, 'chan3_raw': 1525, 'chan4_raw': 1500, 'chan5_raw': 999, 'chan6_raw': 999, 'chan7_raw': 2000, 'chan8_raw': 999, 'chan9_raw': 999, 'chan10_raw': 999, 'chan11_raw': 1503, 'chan12_raw': 1503, 'chan13_raw': 880, 'chan14_raw': 880, 'chan15_raw': 2011, 'chan16_raw': 2011, 'chan17_raw': 0, 'chan18_raw': 0, 'rssi': 255}
2025-10-01 12:15:51,851 - LOONARR-1 - INFO - Autopilot state: {'connection': True, 'odometry_connection': False, 'bee_state': 'FOLLOW', 'battery': 47, 'speed': 0, 'completed': False, 'frame': (-0.3039, 0.3829, 0, 0.0613), 'target_lost': 0}
2025-10-01 12:15:52,851 - LOONARR-1 - DEBUG - Executing command: FOLLOW, Priority: 1, Body: {}
2025-10-01 12:15:52,902 - LOONARR-1 - INFO - [TARGET LOST]
2025-10-01 12:15:55,290 - LOONARR-1 - DEBUG - Executing command: FOLLOW, Priority: 1, Body: {}
2025-10-01 12:15:55,328 - LOONARR-1 - INFO - [TARGET LOST]
2025-10-01 12:15:57,953 - LOONARR-1 - DEBUG - Executing command: FOLLOW, Priority: 1, Body: {}
2025-10-01 12:15:58,004 - LOONARR-1 - INFO - [TARGET LOST]
2025-10-01 12:16:00,953 - LOONARR-1 - DEBUG - Executing command: FOLLOW, Priority: 1, Body: {}
2025-10-01 12:16:00,988 - LOONARR-1 - INFO - [TARGET LOST]
2025-10-01 12:16:03,332 - LOONARR-1 - DEBUG - Executing command: FOLLOW, Priority: 1, Body: {}
2025-10-01 12:16:03,383 - LOONARR-1 - INFO - [TARGET LOST]
2025-10-01 12:16:05,951 - LOONARR-1 - DEBUG - Executing command: TELEMETRY, Priority: 0, Body: {'target': 'RC_CHANNELS'}
2025-10-01 12:16:06,852 - LOONARR-1 - DEBUG - Telemetry: {'mavpackettype': 'RC_CHANNELS', 'time_boot_ms': 87100, 'chancount': 16, 'chan1_raw': 1500, 'chan2_raw': 1500, 'chan3_raw': 1525, 'chan4_raw': 1500, 'chan5_raw': 999, 'chan6_raw': 999, 'chan7_raw': 2000, 'chan8_raw': 999, 'chan9_raw': 999, 'chan10_raw': 999, 'chan11_raw': 1503, 'chan12_raw': 1503, 'chan13_raw': 880, 'chan14_raw': 880, 'chan15_raw': 2011, 'chan16_raw': 2011, 'chan17_raw': 0, 'chan18_raw': 0, 'rssi': 255}
2025-10-01 12:16:06,852 - LOONARR-1 - INFO - Autopilot state: {'connection': True, 'odometry_connection': False, 'bee_state': 'FOLLOW', 'battery': 47, 'speed': 0, 'completed': False, 'frame': (-0.3039, 0.3829, 0, 0.0613), 'target_lost': 5}
2025-10-01 12:16:07,852 - LOONARR-1 - DEBUG - Executing command: FOLLOW, Priority: 1, Body: {}
2025-10-01 12:16:07,888 - LOONARR-1 - INFO - [FOLLOWING TARGET N:-0.3589, E:0.1852, D:0, Y:0.0296]
2025-10-01 12:16:08,508 - LOONARR-1 - DEBUG - Executing command: FOLLOW, Priority: 1, Body: {}
2025-10-01 12:16:08,557 - LOONARR-1 - INFO - [FOLLOWING TARGET N:-0.3012, E:0.0642, D:0, Y:0.0103]
2025-10-01 12:16:10,247 - LOONARR-1 - DEBUG - Executing command: FOLLOW, Priority: 1, Body: {}
2025-10-01 12:16:10,296 - LOONARR-1 - INFO - [MISSION COMPLETED]
2025-10-01 12:16:13,447 - LOONARR-1 - DEBUG - Executing command: TELEMETRY, Priority: 2, Body: {'target': 'RC_CHANNELS'}
2025-10-01 12:16:14,846 - LOONARR-1 - DEBUG - Telemetry: {'mavpackettype': 'RC_CHANNELS', 'time_boot_ms': 95100, 'chancount': 16, 'chan1_raw': 1500, 'chan2_raw': 1500, 'chan3_raw': 1525, 'chan4_raw': 1500, 'chan5_raw': 999, 'chan6_raw': 999, 'chan7_raw': 2000, 'chan8_raw': 999, 'chan9_raw': 999, 'chan10_raw': 999, 'chan11_raw': 1503, 'chan12_raw': 1503, 'chan13_raw': 880, 'chan14_raw': 880, 'chan15_raw': 2011, 'chan16_raw': 2011, 'chan17_raw': 0, 'chan18_raw': 0, 'rssi': 255}
2025-10-01 12:16:14,846 - LOONARR-1 - INFO - Autopilot state: {'connection': True, 'odometry_connection': False, 'bee_state': 'FOLLOW', 'battery': 47, 'speed': 0, 'completed': True, 'frame': (-0.3012, 0.0642, 0, 0.0103), 'target_lost': 0}
2025-10-01 12:16:15,847 - LOONARR-1 - DEBUG - Executing command: MONITOR, Priority: 3, Body: {'target': 'SYS_STATUS'}
2025-10-01 12:16:16,846 - LOONARR-1 - DEBUG - Monitoring: {'mavpackettype': 'SYS_STATUS', 'onboard_control_sensors_present': 322034735, 'onboard_control_sensors_enabled': 35773487, 'onboard_control_sensors_health': 51502127, 'load': 61, 'voltage_battery': 23511, 'current_battery': 13025, 'battery_remaining': 0, 'drop_rate_comm': 0, 'errors_comm': 0, 'errors_count1': 0, 'errors_count2': 0, 'errors_count3': 0, 'errors_count4': 0}
2025-10-01 12:16:16,846 - LOONARR-1 - INFO - low battery voltage {'mavpackettype': 'SYS_STATUS', 'onboard_control_sensors_present': 322034735, 'onboard_control_sensors_enabled': 35773487, 'onboard_control_sensors_health': 51502127, 'load': 61, 'voltage_battery': 23511, 'current_battery': 13025, 'battery_remaining': 0, 'drop_rate_comm': 0, 'errors_comm': 0, 'errors_count1': 0, 'errors_count2': 0, 'errors_count3': 0, 'errors_count4': 0}%
2025-10-01 12:16:18,446 - LOONARR-1 - DEBUG - Executing command: TELEMETRY, Priority: 2, Body: {'target': 'RC_CHANNELS'}
2025-10-01 12:16:18,846 - LOONARR-1 - DEBUG - Telemetry: {'mavpackettype': 'RC_CHANNELS', 'time_boot_ms': 99100, 'chancount': 16, 'chan1_raw': 1500, 'chan2_raw': 1500, 'chan3_raw': 1525, 'chan4_raw': 1500, 'chan5_raw': 999, 'chan6_raw': 999, 'chan7_raw': 2000, 'chan8_raw': 999, 'chan9_raw': 999, 'chan10_raw': 999, 'chan11_raw': 1503, 'chan12_raw': 1503, 'chan13_raw': 880, 'chan14_raw': 880, 'chan15_raw': 2011, 'chan16_raw': 2011, 'chan17_raw': 0, 'chan18_raw': 0, 'rssi': 255}
2025-10-01 12:16:18,846 - LOONARR-1 - INFO - Autopilot state: {'connection': True, 'odometry_connection': False, 'bee_state': 'FOLLOW', 'battery': 0, 'speed': 0, 'completed': True, 'frame': (-0.3012, 0.0642, 0, 0.0103), 'target_lost': 0}
2025-10-01 12:16:19,846 - LOONARR-1 - DEBUG - Executing command: MONITOR, Priority: 3, Body: {'target': 'SYS_STATUS'}
2025-10-01 12:16:20,845 - LOONARR-1 - DEBUG - Monitoring: {'mavpackettype': 'SYS_STATUS', 'onboard_control_sensors_present': 322034735, 'onboard_control_sensors_enabled': 35773487, 'onboard_control_sensors_health': 51502127, 'load': 60, 'voltage_battery': 23515, 'current_battery': 13033, 'battery_remaining': 0, 'drop_rate_comm': 0, 'errors_comm': 0, 'errors_count1': 0, 'errors_count2': 0, 'errors_count3': 0, 'errors_count4': 0}
2025-10-01 12:16:20,845 - LOONARR-1 - INFO - low battery voltage {'mavpackettype': 'SYS_STATUS', 'onboard_control_sensors_present': 322034735, 'onboard_control_sensors_enabled': 35773487, 'onboard_control_sensors_health': 51502127, 'load': 60, 'voltage_battery': 23515, 'current_battery': 13033, 'battery_remaining': 0, 'drop_rate_comm': 0, 'errors_comm': 0, 'errors_count1': 0, 'errors_count2': 0, 'errors_count3': 0, 'errors_count4': 0}%
2025-10-01 12:16:22,446 - LOONARR-1 - DEBUG - Executing command: TELEMETRY, Priority: 2, Body: {'target': 'RC_CHANNELS'}
2025-10-01 12:16:22,845 - LOONARR-1 - DEBUG - Telemetry: {'mavpackettype': 'RC_CHANNELS', 'time_boot_ms': 103100, 'chancount': 16, 'chan1_raw': 1500, 'chan2_raw': 1500, 'chan3_raw': 1525, 'chan4_raw': 1500, 'chan5_raw': 999, 'chan6_raw': 999, 'chan7_raw': 2000, 'chan8_raw': 999, 'chan9_raw': 999, 'chan10_raw': 999, 'chan11_raw': 1503, 'chan12_raw': 1503, 'chan13_raw': 880, 'chan14_raw': 880, 'chan15_raw': 2011, 'chan16_raw': 2011, 'chan17_raw': 0, 'chan18_raw': 0, 'rssi': 255}
2025-10-01 12:16:22,845 - LOONARR-1 - INFO - Autopilot state: {'connection': True, 'odometry_connection': False, 'bee_state': 'FOLLOW', 'battery': 0, 'speed': 0, 'completed': True, 'frame': (-0.3012, 0.0642, 0, 0.0103), 'target_lost': 0}
2025-10-01 12:16:23,845 - LOONARR-1 - DEBUG - Executing command: MONITOR, Priority: 3, Body: {'target': 'SYS_STATUS'}
2025-10-01 12:16:24,844 - LOONARR-1 - DEBUG - Monitoring: {'mavpackettype': 'SYS_STATUS', 'onboard_control_sensors_present': 322034735, 'onboard_control_sensors_enabled': 35749935, 'onboard_control_sensors_health': 51478575, 'load': 61, 'voltage_battery': 23516, 'current_battery': 13042, 'battery_remaining': 0, 'drop_rate_comm': 0, 'errors_comm': 0, 'errors_count1': 0, 'errors_count2': 0, 'errors_count3': 0, 'errors_count4': 0}
2025-10-01 12:16:24,844 - LOONARR-1 - INFO - low battery voltage {'mavpackettype': 'SYS_STATUS', 'onboard_control_sensors_present': 322034735, 'onboard_control_sensors_enabled': 35749935, 'onboard_control_sensors_health': 51478575, 'load': 61, 'voltage_battery': 23516, 'current_battery': 13042, 'battery_remaining': 0, 'drop_rate_comm': 0, 'errors_comm': 0, 'errors_count1': 0, 'errors_count2': 0, 'errors_count3': 0, 'errors_count4': 0}%
2025-10-01 12:16:26,444 - LOONARR-1 - DEBUG - Executing command: TELEMETRY, Priority: 2, Body: {'target': 'RC_CHANNELS'}
2025-10-01 12:16:26,844 - LOONARR-1 - DEBUG - Telemetry: {'mavpackettype': 'RC_CHANNELS', 'time_boot_ms': 107100, 'chancount': 16, 'chan1_raw': 1500, 'chan2_raw': 1500, 'chan3_raw': 1525, 'chan4_raw': 1500, 'chan5_raw': 999, 'chan6_raw': 999, 'chan7_raw': 999, 'chan8_raw': 999, 'chan9_raw': 999, 'chan10_raw': 999, 'chan11_raw': 1503, 'chan12_raw': 1503, 'chan13_raw': 880, 'chan14_raw': 880, 'chan15_raw': 2011, 'chan16_raw': 2011, 'chan17_raw': 0, 'chan18_raw': 0, 'rssi': 255}
2025-10-01 12:16:26,844 - LOONARR-1 - INFO - Bee state changed to [OFF]
